[
  {"id":"place-0","name":"Yume - Japanese Café & Diner","address":"Japanese, Berlin","coordinates":{"lat":52.4861071173646,"lng":13.384754034611682},"rating":4.6,"reservationUrl":null,"placeUrl":null},
  {"id":"place-1","name":"Berta restaurant","address":"Berlin, Germany","coordinates":{"lat":52.50950486264225,"lng":13.346738095467217},"rating":4.5,"reservationUrl":null,"placeUrl":null},
  {"id":"place-2","name":"Fukagawa","address":"Berlin, Germany","coordinates":{"lat":52.539255766690616,"lng":13.397900708938833},"rating":4.7,"reservationUrl":null,"placeUrl":null},
  {"id":"place-3","name":"The Gibson Bar Berlin","address":"Berlin, Germany","coordinates":{"lat":52.501700558380925,"lng":13.38639487972795},"rating":4.5,"reservationUrl":null,"placeUrl":null},
  {"id":"place-4","name":"Osteria Tressanti","address":"Italian, Berlin","coordinates":{"lat":52.486655720571626,"lng":13.472744183105817},"rating":4.6,"reservationUrl":null,"placeUrl":null},
  {"id":"place-5","name":"Le Coronarie","address":"Berlin, Germany","coordinates":{"lat":52.512578291258016,"lng":13.415554028438834},"rating":4.5,"reservationUrl":null,"placeUrl":null},
  {"id":"place-6","name":"Inari-San Berlin","address":"Soul, Berlin","coordinates":{"lat":52.49032810202973,"lng":13.377695040104477},"rating":4.3,"reservationUrl":null,"placeUrl":null},
  {"id":"place-7","name":"Train Cocktailbar","address":"Cocktail bar, Berlin","coordinates":{"lat":52.51523164139379,"lng":13.434461858856645},"rating":4.8,"reservationUrl":null,"placeUrl":null},
  {"id":"place-8","name":"Stagger Lee","address":"Cocktail bar, Berlin","coordinates":{"lat":52.56728356863065,"lng":13.477477841815816},"rating":4.7,"reservationUrl":null,"placeUrl":null},
  {"id":"place-9","name":"Antonello's Cevicheria & StreetFood","address":"Italian, Berlin","coordinates":{"lat":52.53792159897029,"lng":13.430027048370958},"rating":4.5,"reservationUrl":null,"placeUrl":null},
  {"id":"place-10","name":"Space Meduza","address":"Bar, Berlin","coordinates":{"lat":52.47748055076421,"lng":13.354356560037044},"rating":4.6,"reservationUrl":null,"placeUrl":null},
  {"id":"place-11","name":"FAT HENRY Berlin","address":"Berlin, Germany","coordinates":{"lat":52.477495929744514,"lng":13.385162711012395},"rating":4.6,"reservationUrl":null,"placeUrl":null},
  {"id":"place-12","name":"Jolly","address":"Chinese, Berlin","coordinates":{"lat":52.52172770961511,"lng":13.442757404490003},"rating":4.6,"reservationUrl":null,"placeUrl":null},
  {"id":"place-13","name":"Caravaggi Naturwein Bistro","address":"Berlin, Germany","coordinates":{"lat":52.47251739334451,"lng":13.380796274516564},"rating":4.5,"reservationUrl":null,"placeUrl":null},
  {"id":"place-14","name":"Pluto","address":"Wine bar, Berlin","coordinates":{"lat":52.54643424959009,"lng":13.411418671454285},"rating":4.7,"reservationUrl":null,"placeUrl":null},
  {"id":"place-15","name":"Höschen bar","address":"Cocktail bar, Berlin","coordinates":{"lat":52.56660010030864,"lng":13.454169874447324},"rating":4.6,"reservationUrl":null,"placeUrl":null},
  {"id":"place-16","name":"Crosta","address":"Italian, Berlin","coordinates":{"lat":52.54521349062055,"lng":13.359788722962884},"rating":4.9,"reservationUrl":null,"placeUrl":null},
  {"id":"place-17","name":"OMONI 오 모 니","address":"Sushi, Berlin","coordinates":{"lat":52.536211573586975,"lng":13.417055600791228},"rating":4.6,"reservationUrl":null,"placeUrl":null},
  {"id":"place-18","name":"VOLK","address":"Berlin, Germany","coordinates":{"lat":52.552803808847,"lng":13.425447460949677},"rating":4.7,"reservationUrl":null,"placeUrl":null},
  {"id":"place-19","name":"Samán Café Bar","address":"Restaurant, Berlin","coordinates":{"lat":52.48807247844339,"lng":13.454922889768019},"rating":4.8,"reservationUrl":null,"placeUrl":null},
  {"id":"place-20","name":"Samurai Wagyu Yakiniku & Sushi Berlin Mitte","address":"Japanese, Berlin","coordinates":{"lat":52.53308498801942,"lng":13.33717926267871},"rating":4.5,"reservationUrl":null,"placeUrl":null},
  {"id":"place-21","name":"Wok Show","address":"Chinese, Berlin","coordinates":{"lat":52.52769295983741,"lng":13.437306781282274},"rating":4.3,"reservationUrl":null,"placeUrl":null},
  {"id":"place-22","name":"Round & Edgy","address":"Bakery, Berlin","coordinates":{"lat":52.47719557064459,"lng":13.466061602283416},"rating":4.6,"reservationUrl":null,"placeUrl":null},
  {"id":"place-23","name":"Larb Koi","address":"Thai, Berlin","coordinates":{"lat":52.56252067909251,"lng":13.387195682458758},"rating":4.6,"reservationUrl":null,"placeUrl":null},
  {"id":"place-24","name":"Bao Gao Club Prenzlauer Berg","address":"Chinese, Berlin","coordinates":{"lat":52.47733128336789,"lng":13.380520321357485},"rating":4.7,"reservationUrl":null,"placeUrl":null},
  {"id":"place-25","name":"Kuchisabishii Sushi all you can eat","address":"Restaurant, Berlin","coordinates":{"lat":52.48196930829176,"lng":13.39917512257887},"rating":4.6,"reservationUrl":null,"placeUrl":null},
  {"id":"place-26","name":"RAMEN BONES 3","address":"Ramen, Berlin","coordinates":{"lat":52.524756389768996,"lng":13.463627655229594},"rating":4.7,"reservationUrl":null,"placeUrl":null},
  {"id":"place-27","name":"Café und Konditorei Chokkolatta","address":"Coffee shop, Berlin","coordinates":{"lat":52.549143531747156,"lng":13.338541121335723},"rating":4.2,"reservationUrl":null,"placeUrl":null},
  {"id":"place-28","name":"Café Pilz","address":"Restaurant, Berlin","coordinates":{"lat":52.539634729171894,"lng":13.341054629324088},"rating":4.8,"reservationUrl":null,"placeUrl":null},
  {"id":"place-29","name":"GEMELLO","address":"Pizza Takeout, Berlin","coordinates":{"lat":52.51058948492001,"lng":13.340070915055987},"rating":4.7,"reservationUrl":null,"placeUrl":null},
  {"id":"place-30","name":"Sorrel","address":"Berlin, Germany","coordinates":{"lat":52.47255386160302,"lng":13.378415612040303},"rating":4.5,"reservationUrl":null,"placeUrl":null},
  {"id":"place-31","name":"Knödelwirtschaft NORD","address":"Restaurant, Berlin","coordinates":{"lat":52.506785364617244,"lng":13.47503662551663},"rating":4.5,"reservationUrl":null,"placeUrl":null},
  {"id":"place-32","name":"youngheene","address":"Korean, Berlin","coordinates":{"lat":52.54788171092034,"lng":13.355722708204253},"rating":4.6,"reservationUrl":null,"placeUrl":null},
  {"id":"place-33","name":"Prince","address":"Restaurant, Berlin","coordinates":{"lat":52.51928813663645,"lng":13.399929214746946},"rating":4.7,"reservationUrl":null,"placeUrl":null},
  {"id":"place-34","name":"Café Bar Pirouette","address":"Restaurant, Berlin","coordinates":{"lat":52.53901101739476,"lng":13.426861530286489},"rating":4.7,"reservationUrl":null,"placeUrl":null},
  {"id":"place-35","name":"Caligari","address":"Italian, Berlin","coordinates":{"lat":52.5151640057601,"lng":13.471446545513993},"rating":4.5,"reservationUrl":null,"placeUrl":null},
  {"id":"place-36","name":"Café Katulki","address":"Cafe, Berlin","coordinates":{"lat":52.50419179718475,"lng":13.458054685007301},"rating":4.4,"reservationUrl":null,"placeUrl":null},
  {"id":"place-37","name":"Jolie Bistrot","address":"Berlin, Germany","coordinates":{"lat":52.48249881741913,"lng":13.444163649615454},"rating":4.7,"reservationUrl":null,"placeUrl":null},
  {"id":"place-38","name":"Trio","address":"Berlin, Germany","coordinates":{"lat":52.557134611710104,"lng":13.3579820417541},"rating":4.5,"reservationUrl":null,"placeUrl":null},
  {"id":"place-39","name":"File Asto","address":"Restaurant, Berlin","coordinates":{"lat":52.566580279243,"lng":13.334371336815588},"rating":4.6,"reservationUrl":null,"placeUrl":null},
  {"id":"place-40","name":"Hanuman Thai Curry House","address":"Thai, Berlin","coordinates":{"lat":52.54258969888192,"lng":13.425867194787449},"rating":4.7,"reservationUrl":null,"placeUrl":null},
  {"id":"place-41","name":"26 Shibuya","address":"Berlin, Germany","coordinates":{"lat":52.531878746940365,"lng":13.470690138417732},"rating":4.8,"reservationUrl":null,"placeUrl":null},
  {"id":"place-42","name":"Vier & Vierzig","address":"Cocktail bar, Berlin","coordinates":{"lat":52.48669496618155,"lng":13.356591509005225},"rating":5,"reservationUrl":null,"placeUrl":null},
  {"id":"place-43","name":"Pandoras","address":"Cafe, Berlin","coordinates":{"lat":52.50728001530706,"lng":13.356704312089345},"rating":4.8,"reservationUrl":null,"placeUrl":null},
  {"id":"place-44","name":"Stumari","address":"Georgian, Berlin","coordinates":{"lat":52.51078115348729,"lng":13.422258206231335},"rating":4.8,"reservationUrl":null,"placeUrl":null},
  {"id":"place-45","name":"Michelberger Café & Bar","address":"Cafe, Berlin","coordinates":{"lat":52.569154556206485,"lng":13.474950483908232},"rating":4.3,"reservationUrl":null,"placeUrl":null},
  {"id":"place-46","name":"Schneeeule Brauerei","address":"Berlin, Germany","coordinates":{"lat":52.53250512202813,"lng":13.415797800477034},"rating":4.4,"reservationUrl":null,"placeUrl":null},
  {"id":"place-47","name":"UUU","address":"Fine Dining, Berlin","coordinates":{"lat":52.56269069280256,"lng":13.368716278775766},"rating":4.7,"reservationUrl":null,"placeUrl":null},
  {"id":"place-48","name":"مطعم حضرموت اليمن برلين Hadramaut Jemen Restaurant Berlin","address":"Yemenite, Berlin","coordinates":{"lat":52.47195902187137,"lng":13.38549209893041},"rating":4.9,"reservationUrl":null,"placeUrl":null},
  {"id":"place-49","name":"stoke","address":"Restaurant, Berlin","coordinates":{"lat":52.498732586755565,"lng":13.452761609129988},"rating":4.6,"reservationUrl":null,"placeUrl":null},
  {"id":"place-50","name":"El Amigo Taqueria","address":"Mexican, Berlin","coordinates":{"lat":52.54440992772762,"lng":13.330598229769318},"rating":4.8,"reservationUrl":null,"placeUrl":null},
  {"id":"place-51","name":"Dot Tea Bar (一点茶寮)","address":"Berlin, Germany","coordinates":{"lat":52.56052581008413,"lng":13.357032139007861},"rating":4.9,"reservationUrl":null,"placeUrl":null},
  {"id":"place-52","name":"Bundesbüdchen Restaurant Berlin","address":"Berlin, Germany","coordinates":{"lat":52.49806637949644,"lng":13.331827789859192},"rating":4.8,"reservationUrl":null,"placeUrl":null},
  {"id":"place-53","name":"monu - coffee, wine & snacks","address":"Bar, Berlin","coordinates":{"lat":52.55472080957827,"lng":13.40231908966085},"rating":4.8,"reservationUrl":null,"placeUrl":null},
  {"id":"place-54","name":"Saveur de Bánh Mì","address":"Bistro, Berlin","coordinates":{"lat":52.525672576140906,"lng":13.422767854109406},"rating":4.6,"reservationUrl":null,"placeUrl":null},
  {"id":"place-55","name":"MacLaren's Pub","address":"Restaurant, Berlin","coordinates":{"lat":52.50940464799366,"lng":13.421810251447022},"rating":4.4,"reservationUrl":null,"placeUrl":null},
  {"id":"place-56","name":"Sabor a mi - Taco truck","address":"Tacos, Berlin","coordinates":{"lat":52.5109026928663,"lng":13.355970360846877},"rating":5,"reservationUrl":null,"placeUrl":null},
  {"id":"place-57","name":"Adieu Bar","address":"Bar, Berlin","coordinates":{"lat":52.503849776641104,"lng":13.409171371314557},"rating":4.7,"reservationUrl":null,"placeUrl":null},
  {"id":"place-58","name":"MODU Korean Bistro","address":"Korean, Berlin","coordinates":{"lat":52.47865406727505,"lng":13.479207987236588},"rating":4.9,"reservationUrl":null,"placeUrl":null},
  {"id":"place-59","name":"Katzentempel Berlin Mitte","address":"Vegan, Berlin","coordinates":{"lat":52.5232175824393,"lng":13.472425218611942},"rating":4.7,"reservationUrl":null,"placeUrl":null},
  {"id":"place-60","name":"Augustiner auf Bötzow / Wirtshaus und Biergarten","address":"Beer Garden, Berlin","coordinates":{"lat":52.54732478076897,"lng":13.463446297052055},"rating":4,"reservationUrl":null,"placeUrl":null},
  {"id":"place-61","name":"RedRum Art Bar","address":"Bar, Berlin","coordinates":{"lat":52.471873447118824,"lng":13.378867446841177},"rating":4.9,"reservationUrl":null,"placeUrl":null},
  {"id":"place-62","name":"Fleischerei","address":"Restaurant, Berlin","coordinates":{"lat":52.53514774493014,"lng":13.366798562907357},"rating":4.6,"reservationUrl":null,"placeUrl":null},
  {"id":"place-63","name":"Matreshka Bar","address":"Cocktail bar, Berlin","coordinates":{"lat":52.527177365307374,"lng":13.367998192126098},"rating":4.8,"reservationUrl":null,"placeUrl":null},
  {"id":"place-64","name":"Korean Food Stories – Koreanisches Restaurant Berlin Prenzlauer Berg","address":"Korean, Berlin","coordinates":{"lat":52.55096863169951,"lng":13.41779317324236},"rating":4.5,"reservationUrl":null,"placeUrl":null},
  {"id":"place-65","name":"Sanku Maots'ai (Mitte) 三顾冒菜","address":"Chinese, Berlin","coordinates":{"lat":52.475493823648925,"lng":13.42939465874836},"rating":4.5,"reservationUrl":null,"placeUrl":null},
  {"id":"place-66","name":"somedayinHaNoi.","address":"Coffee shop, Berlin","coordinates":{"lat":52.52123223236688,"lng":13.424418809630302},"rating":4.7,"reservationUrl":null,"placeUrl":null},
  {"id":"place-67","name":"Hi! Chili 海椒 (Sichuan Tapas Bistro)","address":"Chop bar, Berlin","coordinates":{"lat":52.483119769263276,"lng":13.452025674275452},"rating":4.9,"reservationUrl":null,"placeUrl":null},
  {"id":"place-68","name":"Nutts Thai Kitchen","address":"Thai, Berlin","coordinates":{"lat":52.512481513185925,"lng":13.473868470910167},"rating":5,"reservationUrl":null,"placeUrl":null},
  {"id":"place-69","name":"Leibhaftig","address":"Berlin, Germany","coordinates":{"lat":52.495495398665064,"lng":13.383122811279636},"rating":4.5,"reservationUrl":null,"placeUrl":null},
  {"id":"place-70","name":"Gippeum","address":"Korean, Berlin","coordinates":{"lat":52.555619947349726,"lng":13.47864427718541},"rating":4.7,"reservationUrl":null,"placeUrl":null},
  {"id":"place-71","name":"Candyman Izakaya","address":"Berlin, Germany","coordinates":{"lat":52.546428817452735,"lng":13.468315239318319},"rating":4.3,"reservationUrl":null,"placeUrl":null},
  {"id":"place-72","name":"IPPAI NO RAMEN Berlin","address":"Ramen, Berlin","coordinates":{"lat":52.5203526769232,"lng":13.382201119856578},"rating":4.7,"reservationUrl":null,"placeUrl":null},
  {"id":"place-73","name":"ichi いち","address":"Berlin, Germany","coordinates":{"lat":52.48236473053415,"lng":13.458682242882052},"rating":4.7,"reservationUrl":null,"placeUrl":null},
  {"id":"place-74","name":"OKA Onigiri","address":"Japanese, Berlin","coordinates":{"lat":52.55767084052505,"lng":13.468836678979908},"rating":4.9,"reservationUrl":null,"placeUrl":null},
  {"id":"place-75","name":"migas, a listening bar","address":"Bar, Berlin","coordinates":{"lat":52.568708199717705,"lng":13.463380620825067},"rating":4.8,"reservationUrl":null,"placeUrl":null},
  {"id":"place-76","name":"Our Sake Club","address":"Bar, Berlin","coordinates":{"lat":52.56332104855956,"lng":13.348148471303688},"rating":4.9,"reservationUrl":null,"placeUrl":null},
  {"id":"place-77","name":"s h i z u k u .","address":"Berlin, Germany","coordinates":{"lat":52.56865361510639,"lng":13.409930444023589},"rating":4.8,"reservationUrl":null,"placeUrl":null},
  {"id":"place-78","name":"Brasserie Dandelion","address":"Japanese, Berlin","coordinates":{"lat":52.56417507080092,"lng":13.386728704577202},"rating":4.6,"reservationUrl":null,"placeUrl":null},
  {"id":"place-79","name":"Cantine St. Ambroeus","address":"Berlin, Germany","coordinates":{"lat":52.47073840097249,"lng":13.415717051346174},"rating":4.9,"reservationUrl":null,"placeUrl":null},
  {"id":"place-80","name":"machiko sake.shochu.bites","address":"Bar, Berlin","coordinates":{"lat":52.474515166215234,"lng":13.42307285000902},"rating":5,"reservationUrl":null,"placeUrl":null},
  {"id":"place-81","name":"MUSCHELBAR","address":"Seafood, Berlin","coordinates":{"lat":52.51911653888019,"lng":13.414200377914078},"rating":4.8,"reservationUrl":null,"placeUrl":null}
]
